{
  "stations": [
    {
      "FromTo": ["Vaishali", "Dwarka Sec-21"],
      "Interchange": [],
      "Index": 1,
      "Name": "Vaishali",
      "Neighbours": ["Kaushambi"],
      "Line": "BLUE",
      "longitude": 77.33974, 
      "latitude": 28.64997
    },
    {
      "FromTo": [],
      "Interchange": [],
      "Index": 2,
      "Name": "Kaushambi",
      "Neighbours": ["Vaishali", "Anand Vihar"],
      "Line": "BLUE",
      "longitude": 77.32432, 
      "latitude": 28.64544
    },
    {
      "FromTo": [],
      "Interchange": [],
      "Index": 3,
      "Name": "Anand Vihar",
      "Neighbours": ["Kaushambi", "Karkar Duma", "IP Extension"],
      "Line": "BLUE",
      "longitude": 77.31603, 
      "latitude": 28.64695
    },
    {
      "FromTo": [],
      "Interchange": [],
      "Index": 4,
      "Name": "Karkar Duma",
      "Neighbours": ["Anand Vihar", "Preet Vihar", "Krishna Nagar"],
      "Line": "BLUE",
      "longitude": 77.30558, 
      "latitude": 28.64849
    },
    {
      "FromTo": [],
      "Interchange": [],
      "Index": 5,
      "Name": "Preet Vihar",
      "Neighbours": ["Karkar Duma", "Nirman Vihar"],
      "Line": "BLUE",
      "longitude": 77.29543, 
      "latitude": 28.64171
    },
    {
      "FromTo": [],
      "Interchange": [],
      "Index": 6,
      "Name": "Nirman Vihar",
      "Neighbours": ["Preet Vihar", "Laxmi Nagar"],
      "Line": "BLUE",
      "longitude": 77.28683, 
      "latitude": 28.63663
    },

    {
      "FromTo": [],
      "Interchange": [],
      "Index": 7,
      "Name": "Laxmi Nagar",
      "Neighbours": ["Nirman Vihar", "Yamuna Bank"],
      "Line": "BLUE",
      "longitude": 77.27749, 
      "latitude": 28.63064
    },

    {
      "FromTo": [],
      "Interchange": [],
      "Index": -8,
      "Name": "Noida Electronic City",
      "Neighbours": ["Noida Sector 62"],
      "Line": "BLUE",
    },
    {
      "FromTo": [],
      "Interchange": [],
      "Index": -7,
      "Name": "Noida Sector 62",
      "Neighbours": ["Noida Electronic City", "Noida Sector 59"],
      "Line": "BLUE"
    },
    {
      "FromTo": [],
      "Interchange": [],
      "Index": -6,
      "Name": "Noida Sector 59",
      "Neighbours": ["Noida Sector 62", "Noida Sector 61"],
      "Line": "BLUE"
    },
    {
      "FromTo": [],
      "Interchange": [],
      "Index": -5,
      "Name": "Noida Sector 61",
      "Neighbours": ["Noida Sector 59", "Noida Sector 52"],
      "Line": "BLUE"
    },
    {
      "FromTo": [],
      "Interchange": [],
      "Index": -4,
      "Name": "Noida Sector 52",
      "Neighbours": ["Noida Sector 61", "Noida Sector 34"],
      "Line": "BLUE"
    },
    {
      "FromTo": [],
      "Interchange": [],
      "Index": -3,
      "Name": "Noida Sector 34",
      "Neighbours": ["Noida Sector 52", "Noida City Centre"],
      "Line": "BLUE"
    },
    {
      "FromTo": [],
      "Interchange": [],
      "Index": -2,
      "Name": "Noida City Centre",
      "Neighbours": ["Noida Sector 34", "Golf Course"],
      "Line": "BLUE",
      "longitude": 77.35608, 
      "latitude": 28.57466
    },
    {
      "FromTo": [],
      "Interchange": [],
      "Index": -1,
      "Name": "Golf Course",
      "Neighbours": ["Noida City Centre", "Botanical Garden"],
      "Line": "BLUE",
      "longitude": 77.34598, 
      "latitude": 28.56714
    },
    {
      "FromTo": [],
      "Interchange": [],
      "Index": 0,
      "Name": "Botanical Garden",
      "Neighbours": ["Golf Course", "Noida Sector 18", "Okhla Bird Sanctuary"],
      "Line": "BLUE",
      "longitude": 77.33420, 
      "latitude": 28.56409
    },
    {
      "FromTo": [],
      "Interchange": [],
      "Index": 1,
      "Name": "Noida Sector 18",
      "Neighbours": ["Botanical Garden", "Noida Sector 16"],
      "Line": "BLUE",
      "longitude": 77.32612, 
      "latitude": 28.57081
    },
    {
      "FromTo": [],
      "Interchange": [],
      "Index": 2,
      "Name": "Noida Sector 16",
      "Neighbours": ["Noida Sector 18", "Noida Sector 15"],
      "Line": "BLUE",
      "longitude": 77.31757, 
      "latitude": 28.57819
    },
    {
      "FromTo": [],
      "Interchange": [],
      "Index": 3,
      "Name": "Noida Sector 15",
      "Neighbours": ["Noida Sector 16", "New Ashok Nagar"],
      "Line": "BLUE",
      "longitude": 77.31139, 
      "latitude": 28.58512
    },
    {
      "FromTo": [],
      "Interchange": [],
      "Index": 4,
      "Name": "New Ashok Nagar",
      "Neighbours": ["Noida Sector 15", "Mayur Vihar Ext"],
      "Line": "BLUE",
      "longitude": 77.30204, 
      "latitude": 28.58916
    },
    {
      "FromTo": [],
      "Interchange": [],
      "Index": 5,
      "Name": "Mayur Vihar Ext",
      "Neighbours": ["New Ashok Nagar", "Mayur Vihar - I"],
      "Line": "BLUE",
      "longitude": 77.29455, 
      "latitude": 28.59428
      
    },
    {
      "FromTo": [],
      "Interchange": [],
      "Index": 6,
      "Name": "Mayur Vihar - I",
      "Neighbours": [
        "Mayur Vihar Ext",
        "Akshardham",
        "Hazrat Nizamuddin",
        "Mayur Vihar Pocket 1"
      ],
      "Line": "BLUE",
      "longitude": 77.28925, 
      "latitude": 28.60442
    },
    {
      "FromTo": [],
      "Interchange": [],
      "Index": 7,
      "Name": "Akshardham",
      "Neighbours": ["Mayur Vihar - I", "Yamuna Bank"],
      "Line": "BLUE",
      "longitude": 77.27869, 
      "latitude": 28.61806
    },
    {
      "FromTo": [],
      "Interchange": [],
      "Index": 8,
      "Name": "Yamuna Bank",
      "Neighbours": ["Akshardham", "Indraprasta", "Laxmi Nagar"],
      "Line": "BLUE",
      "longitude": 77.26792, 
      "latitude": 28.62331
    },
    {
      "FromTo": [],
      "Interchange": [],
      "Index": 9,
      "Name": "Indraprasta",
      "Neighbours": ["Yamuna Bank", "Supreme Court"],
      "Line": "BLUE",
      "longitude": 77.24993, 
      "latitude": 28.62051
    },
    {
      "FromTo": [],
      "Interchange": [],
      "Index": 10,
      "Name": "Supreme Court",
      "Neighbours": ["Indraprasta", "Mandi House"],
      "Line": "BLUE",
      
    },
    {
      "FromTo": [],
      "Interchange": [],
      "Index": 11,
      "Name": "Mandi House",
      "Neighbours": ["Supreme Court", "Barakhamba"],
      "Line": "BLUE",
      "longitude": 77.23410, 
      "latitude": 28.62588
    },
    {
      "FromTo": [],
      "Interchange": [],
      "Index": 12,
      "Name": "Barakhamba",
      "Neighbours": ["Mandi House", "Rajiv Chowk"],
      "Line": "BLUE",
      "longitude": 77.22436, 
      "latitude": 28.63003
    },
    {
      "FromTo": [],
      "Interchange": [],
      "Index": 13,
      "Name": "Rajiv Chowk",
      "Neighbours": ["Barakhamba", "RK Ashram Marg"],
      "Line": "BLUE",
      "longitude": 77.21826, 
      "latitude": 28.63282
    },
    {
      "FromTo": [],
      "Interchange": [],
      "Index": 14,
      "Name": "RK Ashram Marg",
      "Neighbours": ["Rajiv Chowk", "Jhandewalan"],
      "Line": "BLUE",
      "longitude": 77.20840, 
      "latitude": 28.63923
    },
    {
      "FromTo": [],
      "Interchange": [],
      "Index": 15,
      "Name": "Jhandewalan",
      "Neighbours": ["RK Ashram Marg", "Karol Bagh"],
      "Line": "BLUE",
      "longitude": 77.19988, 
      "latitude": 28.64427
    },
    {
      "FromTo": [],
      "Interchange": [],
      "Index": 16,
      "Name": "Karol Bagh",
      "Neighbours": ["Jhandewalan", "Rajendra Place"],
      "Line": "BLUE",
      "longitude": 77.18855, 
      "latitude": 28.64400
    },
    {
      "FromTo": [],
      "Interchange": [],
      "Index": 17,
      "Name": "Rajendra Place",
      "Neighbours": ["Karol Bagh", "Patel Nagar"],
      "Line": "BLUE",
      "longitude": 77.17815, 
      "latitude": 28.64250
    },
    {
      "FromTo": [],
      "Interchange": [],
      "Index": 18,
      "Name": "Patel Nagar",
      "Neighbours": ["Rajendra Place", "Shadi Pur"],
      "Line": "BLUE",
      "longitude": 77.16929, 
      "latitude": 28.64498
    },
    {
      "FromTo": [],
      "Interchange": [],
      "Index": 19,
      "Name": "Shadi Pur",
      "Neighbours": ["Patel Nagar", "Kirti Nagar"],
      "Line": "BLUE",
      "longitude": 77.15824, 
      "latitude": 28.65160
    },
    {
      "FromTo": [],
      "Interchange": [],
      "Index": 20,
      "Name": "Kirti Nagar",
      "Neighbours": ["Shadi Pur", "Moti Nagar"],
      "Line": "BLUE",
      "longitude": 77.15057, 
      "latitude": 28.65575
    },
    {
      "FromTo": [],
      "Interchange": [],
      "Index": 21,
      "Name": "Moti Nagar",
      "Neighbours": ["Kirti Nagar", "Ramesh Nagar"],
      "Line": "BLUE",
      "longitude": 77.14248, 
      "latitude": 28.65784
    },
    {
      "FromTo": [],
      "Interchange": [],
      "Index": 22,
      "Name": "Ramesh Nagar",
      "Neighbours": ["Moti Nagar", "Rajouri Garden"],
      "Line": "BLUE",
      "longitude": 77.13164, 
      "latitude": 28.65274
    },
    {
      "FromTo": [],
      "Interchange": [],
      "Index": 23,
      "Name": "Rajouri Garden",
      "Neighbours": [
        "Ramesh Nagar",
        "Tagore Garden",
        "ESI Hospital",
        "Maya Puri"
      ],
      "Line": "BLUE",
       "longitude": 77.12270, 
       "latitude": 28.64902
    },
    {
      "FromTo": [],
      "Interchange": [],
      "Index": 24,
      "Name": "Tagore Garden",
      "Neighbours": ["Rajouri Garden", "Subash Nagar"],
      "Line": "BLUE",
      "longitude": 77.11284, 
      "latitude": 28.64379
    },
    {
      "FromTo": [],
      "Interchange": [],
      "Index": 25,
      "Name": "Subash Nagar",
      "Neighbours": ["Tagore Garden", "Tilak Nagar"],
      "Line": "BLUE",
      "longitude": 77.10495, 
      "latitude": 28.64039
    },
    {
      "FromTo": [],
      "Interchange": [],
      "Index": 26,
      "Name": "Tilak Nagar",
      "Neighbours": ["Subash Nagar", "Janak Puri East"],
      "Line": "BLUE",
      "longitude": 77.09648, 
      "latitude": 28.63657
    },
    {
      "FromTo": [],
      "Interchange": [],
      "Index": 27,
      "Name": "Janak Puri East",
      "Neighbours": ["Tilak Nagar", "Janak Puri West"],
      "Line": "BLUE",
      "longitude": 77.08669, 
      "latitude": 28.63305
    },
    {
      "FromTo": [],
      "Interchange": [],
      "Index": 28,
      "Name": "Janak Puri West",
      "Neighbours": ["Janak Puri East", "Uttam Nagar East", "Dabri Mor"],
      "Line": "BLUE",
      "longitude": 77.07767, 
      "latitude": 28.62943
    },
    {
      "FromTo": [],
      "Interchange": [],
      "Index": 29,
      "Name": "Uttam Nagar East",
      "Neighbours": ["Janak Puri West", "Uttam Nagar West"],
      "Line": "BLUE",
      "longitude": 77.06530, 
      "latitude": 28.62481
    },
    {
      "FromTo": [],
      "Interchange": [],
      "Index": 30,
      "Name": "Uttam Nagar West",
      "Neighbours": ["Uttam Nagar East", "Nawada"],
      "Line": "BLUE",
      "longitude": 77.05585, 
      "latitude": 28.62177
    },

    {
      "FromTo": [],
      "Interchange": [],
      "Index": 31,
      "Name": "Nawada",
      "Neighbours": ["Uttam Nagar West", "Dwaraka Mor"],
      "Line": "BLUE",
      "longitude": 77.04514, 
      "latitude": 28.62025
    },
    {
      "FromTo": [],
      "Interchange": [],
      "Index": 32,
      "Name": "Dwaraka Mor",
      "Neighbours": ["Nawada", "Dwarka"],
      "Line": "BLUE",
      "longitude": 77.03326, 
      "latitude": 28.61932
    },
    {
      "FromTo": [],
      "Interchange": [],
      "Index": 33,
      "Name": "Dwarka",
      "Neighbours": ["Dwaraka Mor", "Dwarka Sector - 14"],
      "Line": "BLUE",
      "longitude": 77.02197, 
      "latitude": 28.61564
    },
    {
      "FromTo": [],
      "Interchange": [],
      "Index": 34,
      "Name": "Dwarka Sector - 14",
      "Neighbours": ["Dwarka", "Dwarka Sector - 13"],
      "Line": "BLUE",
      "longitude": 77.02588, 
      "latitude": 28.60223
    },
    {
      "FromTo": [],
      "Interchange": [],
      "Index": 35,
      "Name": "Dwarka Sector - 13",
      "Neighbours": ["Dwarka Sector - 14", "Dwarka Sector - 12"],
      "Line": "BLUE",
      "longitude": 77.03326, 
      "latitude": 28.59722
    },
    {
      "FromTo": [],
      "Interchange": [],
      "Index": 36,
      "Name": "Dwarka Sector - 12",
      "Neighbours": ["Dwarka Sector - 13", "Dwarka Sector - 11"],
      "Line": "BLUE",
      "longitude": 77.04051,
      "latitude": 28.59232
    },
    {
      "FromTo": [],
      "Interchange": [],
      "Index": 37,
      "Name": "Dwarka Sector - 11",
      "Neighbours": ["Dwarka Sector - 12", "Dwarka Sector - 10"],
      "Line": "BLUE",
      "longitude": 77.04929, 
      "latitude": 28.58657
    },
    {
      "FromTo": [],
      "Interchange": [],
      "Index": 38,
      "Name": "Dwarka Sector - 10",
      "Neighbours": ["Dwarka Sector - 11", "Dwarka Sector - 9"],
      "Line": "BLUE",
      "longitude": 77.05682, 
      "latitude": 28.58068
    },
    {
      "FromTo": [],
      "Interchange": [],
      "Index": 39,
      "Name": "Dwarka Sector - 9",
      "Neighbours": ["Dwarka Sector - 10", "Dwarka Sector - 8"],
      "Line": "BLUE",
      "longitude": 77.06454, 
      "latitude": 28.57487
    },
    {
      "FromTo": [],
      "Interchange": [],
      "Index": 40,
      "Name": "Dwarka Sector - 8",
      "Neighbours": ["Dwarka Sector - 9", "Dwarka Sector - 21"],
      "Line": "BLUE",
      "longitude": 77.06706, 
      "latitude": 28.56583
    },
    {
      "FromTo": [],
      "Interchange": [],
      "Index": 41,
      "Name": "Dwarka Sector - 21",
      "Neighbours": ["Dwarka Sector - 8"],
      "Line": "BLUE",
      "longitude": 77.05828, 
      "latitude": 28.55226
    },
    {
      "FromTo": [],
      "Interchange": [],
      "Index": 1,
      "Name": "Dilshad Garden",
      "Neighbours": ["Jhilmil"],
      "Line": "RED",
      "longitude": 77.32142, 
      "latitude": 28.67592
    },
    {
      "FromTo": [],
      "Interchange": [],
      "Index": 1,
      "Name": "Jhilmil",
      "Neighbours": ["Dilshad Garden", "Mansarover Park"],
      "Line": "RED",
      "longitude": 77.31239, 
      "latitude": 28.67579
    },
    {
      "FromTo": [],
      "Interchange": [],
      "Index": 1,
      "Name": "Mansarover Park",
      "Neighbours": ["Jhilmil", "Shahdara"],
      "Line": "RED",
      "longitude": 77.30095, 
      "latitude": 28.67544
    },
    {
      "FromTo": [],
      "Interchange": [],
      "Index": 1,
      "Name": "Shahdara",
      "Neighbours": ["Mansarover Park", "Welcome"],
      "Line": "RED",
      "longitude": 77.28962, 
      "latitude": 28.67345
    },
    {
      "FromTo": [],
      "Interchange": [],
      "Index": 1,
      "Name": "Welcome",
      "Neighbours": ["Shahdara", "Seelampur", "Jaffrabad", "East Azad Nagar"],
      "Line": "RED",
      "longitude": 77.27756, 
      "latitude": 28.67180
    },
    {
      "FromTo": [],
      "Interchange": [],
      "Index": 1,
      "Name": "Seelampur",
      "Neighbours": ["Welcome", "Shastri Park"],
      "Line": "RED",
      "longitude": 77.26678, 
      "latitude": 28.66989
    },
    {
      "FromTo": [],
      "Interchange": [],
      "Index": 1,
      "Name": "Shastri Park",
      "Neighbours": ["Seelampur", "Kashmere Gate"],
      "Line": "RED",
      "longitude": 77.24994, 
      "latitude": 28.66800
    },
    {
      "FromTo": [],
      "Interchange": [],
      "Index": 1,
      "Name": "Kashmere Gate",
      "Neighbours": ["Shastri Park", "Tis Hazari"],
      "Line": "RED",
      "longitude": 77.22817, 
      "latitude": 28.66750
    },
    {
      "FromTo": [],
      "Interchange": [],
      "Index": 1,
      "Name": "Tis Hazari",
      "Neighbours": ["Kashmere Gate", "Pulbangash"],
      "Line": "RED",
      "longitude": 77.21653, 
      "latitude": 28.66711
    },
    {
      "FromTo": [],
      "Interchange": [],
      "Index": 1,
      "Name": "Pulbangash",
      "Neighbours": ["Tis Hazari", "Pratap Nagar"],
      "Line": "RED",
      "longitude": 77.20727, 
      "latitude": 28.66636
    },
    {
      "FromTo": [],
      "Interchange": [],
      "Index": 1,
      "Name": "Pratap Nagar",
      "Neighbours": ["Pulbangash", "Shastri Nagar"],
      "Line": "RED",
      "longitude": 77.19882, 
      "latitude": 28.66662
    },
    {
      "FromTo": [],
      "Interchange": [],
      "Index": 1,
      "Name": "Shastri Nagar",
      "Neighbours": ["Pratap Nagar", "Inderlok Line-1"],
      "Line": "RED",
      "longitude": 77.18169, 
      "latitude": 28.66999
      
    },
    {
      "FromTo": [],
      "Interchange": [],
      "Index": 1,
      "Name": "Inderlok Line-1",
      "Neighbours": ["Shastri Nagar", "Kanhaiya Nagar"],
      "Line": "RED",
      "longitude": 77.16994, 
      "latitude": 28.67319
    },
    {
      "FromTo": [],
      "Interchange": [],
      "Index": 1,
      "Name": "Kanhaiya Nagar",
      "Neighbours": ["Inderlok Line-1", "Keshav Puram"],
      "Line": "RED",
      "longitude": 77.16459, 
      "latitude": 28.68254
    },
    {
      "FromTo": [],
      "Interchange": [],
      "Index": 1,
      "Name": "Keshav Puram",
      "Neighbours": ["Kanhaiya Nagar", "Netaji Subhash Place"],
      "Line": "RED",
      "longitude": 77.16160, 
      "latitude": 28.68894
    },
    {
      "FromTo": [],
      "Interchange": [],
      "Index": 1,
      "Name": "Netaji Subhash Place",
      "Neighbours": [
        "Keshav Puram",
        "Kohat Enclave",
        "Shalimar Bagh",
        "Shakurpur"
      ],
      "Line": "RED",
       "longitude": 77.15226, 
       "latitude": 28.69591
    },
    {
      "FromTo": [],
      "Interchange": [],
      "Index": 1,
      "Name": "Kohat Enclave",
      "Neighbours": ["Netaji Subhash Place", "Pitampura"],
      "Line": "RED",
      "longitude": 77.14024, 
      "latitude": 28.69810
    },
    {
      "FromTo": [],
      "Interchange": [],
      "Index": 1,
      "Name": "Pitampura",
      "Neighbours": ["Kohat Enclave", "Rohini East"],
      "Line": "RED",
      "longitude": 77.13223, 
      "latitude": 28.70317
    },
    {
      "FromTo": [],
      "Interchange": [],
      "Index": 1,
      "Name": "Rohini East",
      "Neighbours": ["Pitampura", "Rohini West"],
      "Line": "RED",
      "longitude": 77.12591, 
      "latitude": 28.70760
    },
    {
      "FromTo": [],
      "Interchange": [],
      "Index": 1,
      "Name": "Rohini West",
      "Neighbours": ["Rohini East", "Rithala"],
      "Line": "RED",
      "longitude": 77.11467, 
      "latitude": 28.71483
    },
    {
      "FromTo": [],
      "Interchange": [],
      "Index": 1,
      "Name": "Rithala",
      "Neighbours": ["Rohini West"],
      "Line": "RED",
      "longitude": 77.10713, 
      "latitude": 28.72072
    },

    {
      "FromTo": [],
      "Interchange": [],
      "Index": 1,
      "Name": "Majlis Park",
      "Neighbours": ["Azadpur"],
      "Line": "PINK",
      
    },
    {
      "FromTo": [],
      "Interchange": [],
      "Index": 1,
      "Name": "Azadpur",
      "Neighbours": [
        "Majlis Park",
        "Shalimar Bagh",
        "Adarsh Nagar",
        "Model Town"
      ],
      "Line": "PINK",
      "longitude": 77.18053, 
      "latitude": 28.70696
    },
    {
      "FromTo": [],
      "Interchange": [],
      "Index": 1,
      "Name": "Shalimar Bagh",
      "Neighbours": ["Azadpur", "Netaji Subhash Place"],
      "Line": "PINK",
      
    },
    {
      "FromTo": [],
      "Interchange": [],
      "Index": 1,
      "Name": "Shakurpur",
      "Neighbours": ["Netaji Subhash Place", "Punjabi Bagh West"],
      "Line": "PINK"
    },
    {
      "FromTo": [],
      "Interchange": [],
      "Index": 1,
      "Name": "Punjabi Bagh West",
      "Neighbours": ["Shakurpur", "ESI Hospital"],
      "Line": "PINK",
      "longitude": 77.14614, 
      "latitude": 28.67289 
    },
    {
      "FromTo": [],
      "Interchange": [],
      "Index": 1,
      "Name": "ESI Hospital",
      "Neighbours": ["Punjabi Bagh West", "Rajouri Garden"],
      "Line": "PINK",
      
    },
    {
      "FromTo": [],
      "Interchange": [],
      "Index": 1,
      "Name": "Maya Puri",
      "Neighbours": ["Rajouri Garden", "Nariana Vihar"],
      "Line": "PINK",
      
    },
    {
      "FromTo": [],
      "Interchange": [],
      "Index": 1,
      "Name": "Nariana Vihar",
      "Neighbours": ["Maya Puri", "Delhi Cantt"],
      "Line": "PINK",
      
    },
    {
      "FromTo": [],
      "Interchange": [],
      "Index": 1,
      "Name": "Delhi Cantt",
      "Neighbours": ["Nariana Vihar", "Durgabai Deshmukh South Campus"],
      "Line": "PINK",
      
    },
    {
      "FromTo": [],
      "Interchange": [],
      "Index": 1,
      "Name": "Durgabai Deshmukh South Campus",
      "Neighbours": ["Delhi Cantt", "Sir Vishweshwaraiah Moti Bagh"],
      "Line": "PINK",
    },
    {
      "FromTo": [],
      "Interchange": [],
      "Index": 1,
      "Name": "Sir Vishweshwaraiah Moti Bagh",
      "Neighbours": ["Durgabai Deshmukh South Campus", "Bhikaji Cama Place"],
      "Line": "PINK",
    },
    {
      "FromTo": [],
      "Interchange": [],
      "Index": 1,
      "Name": "Bhikaji Cama Place",
      "Neighbours": ["Sir Vishweshwaraiah Moti Bagh", "Sarojini Nagar"],
      "Line": "PINK"
    },
    {
      "FromTo": [],
      "Interchange": [],
      "Index": 1,
      "Name": "Sarojini Nagar",
      "Neighbours": ["Bhikaji Cama Place", "INA"],
      "Line": "PINK",
      
    },
    {
      "FromTo": [],
      "Interchange": [],
      "Index": 1,
      "Name": "INA",
      "Neighbours": ["Sarojini Nagar", "South Extension"],
      "Line": "PINK"
    },
    {
      "FromTo": [],
      "Interchange": [],
      "Index": 1,
      "Name": "South Extension",
      "Neighbours": ["INA", "Lajpat Nagar"],
      "Line": "PINK"
    },

    {
      "FromTo": [],
      "Interchange": [],
      "Index": 1,
      "Name": "Vinobapuri",
      "Neighbours": ["Lajpat Nagar", "Ashram"],
      "Line": "PINK"
    },
    {
      "FromTo": [],
      "Interchange": [],
      "Index": 1,
      "Name": "Ashram",
      "Neighbours": ["Vinobapuri", "Hazrat Nizamuddin"],
      "Line": "PINK"
    },
    {
      "FromTo": [],
      "Interchange": [],
      "Index": 1,
      "Name": "Hazrat Nizamuddin",
      "Neighbours": ["Ashram", "Mayur Vihar - I"],
      "Line": "PINK"
    },
    {
      "FromTo": [],
      "Interchange": [],
      "Index": 1,
      "Name": "Mayur Vihar Pocket 1",
      "Neighbours": ["Mayur Vihar - I", "Trilok Puri Sanjay Lake"],
      "Line": "PINK"
    },
    {
      "FromTo": [],
      "Interchange": [],
      "Index": 1,
      "Name": "Trilok Puri Sanjay Lake",
      "Neighbours": ["Mayur Vihar Pocket 1", "Vinod Nagar East"],
      "Line": "PINK"
    },
    {
      "FromTo": [],
      "Interchange": [],
      "Index": 1,
      "Name": "Vinod Nagar East",
      "Neighbours": ["Trilok Puri Sanjay Lake", "Vinod Nagar"],
      "Line": "PINK"
    },
    {
      "FromTo": [],
      "Interchange": [],
      "Index": 1,
      "Name": "Vinod Nagar",
      "Neighbours": ["Vinod Nagar East", "IP Extension"],
      "Line": "PINK"
    },
    {
      "FromTo": [],
      "Interchange": [],
      "Index": 1,
      "Name": "IP Extension",
      "Neighbours": ["Vinod Nagar", "Anand Vihar"],
      "Line": "PINK"
    },
    {
      "FromTo": [],
      "Interchange": [],
      "Index": 1,
      "Name": "Krishna Nagar",
      "Neighbours": ["Karkar Duma", "Karkarduma Court"],
      "Line": "PINK"
    },

    {
      "FromTo": [],
      "Interchange": [],
      "Index": 1,
      "Name": "Karkarduma Court",
      "Neighbours": ["Krishna Nagar", "East Azad Nagar"],
      "Line": "PINK"
    },

    {
      "FromTo": [],
      "Interchange": [],
      "Index": 1,
      "Name": "East Azad Nagar",
      "Neighbours": ["Karkarduma Court", "Welcome"],
      "Line": "PINK"
    },
    {
      "FromTo": [],
      "Interchange": [],
      "Index": 1,
      "Name": "Jaffrabad",
      "Neighbours": ["Welcome", "Maujpur"],
      "Line": "PINK"
    },
    {
      "FromTo": [],
      "Interchange": [],
      "Index": 1,
      "Name": "Maujpur",
      "Neighbours": ["Jaffrabad", "Gokul Puri"],
      "Line": "PINK"
    },
    {
      "FromTo": [],
      "Interchange": [],
      "Index": 1,
      "Name": "Gokul Puri",
      "Neighbours": ["Maujpur", "Johri Enclave"],
      "Line": "PINK"
    },
    {
      "FromTo": [],
      "Interchange": [],
      "Index": 1,
      "Name": "Johri Enclave",
      "Neighbours": ["Gokul Puri", "Shiv Vihar"],
      "Line": "PINK"
    },
    {
      "FromTo": [],
      "Interchange": [],
      "Index": 1,
      "Name": "Shiv Vihar",
      "Neighbours": ["Johri Enclave"],
      "Line": "PINK"
    },

    {
      "FromTo": [],
      "Interchange": [],
      "Index": 1,
      "Name": "Kashmere Gate",
      "Neighbours": ["Lal Quila"],
      "Line": "VIOLET"
    },
    {
      "FromTo": [],
      "Interchange": [],
      "Index": 1,
      "Name": "Lal Quila",
      "Neighbours": ["Kashmere Gate", "Jama Masjid"],
      "Line": "VIOLET"
    },
    {
      "FromTo": [],
      "Interchange": [],
      "Index": 1,
      "Name": "Jama Masjid",
      "Neighbours": ["Lal Quila", "Delhi Gate"],
      "Line": "VIOLET"
    },
    {
      "FromTo": [],
      "Interchange": [],
      "Index": 1,
      "Name": "Delhi Gate",
      "Neighbours": ["Jama Masjid", "ITO"],
      "Line": "VIOLET"
    },
    {
      "FromTo": [],
      "Interchange": [],
      "Index": 1,
      "Name": "ITO",
      "Neighbours": ["Delhi Gate", "Mandi House"],
      "Line": "VIOLET"
    },
    {
      "FromTo": [],
      "Interchange": [],
      "Index": 1,
      "Name": "Mandi House",
      "Neighbours": ["ITO", "Janpath"],
      "Line": "VIOLET"
    },
    {
      "FromTo": [],
      "Interchange": [],
      "Index": 1,
      "Name": "Janpath",
      "Neighbours": ["Mandi House", "Central Secretariat"],
      "Line": "VIOLET"
    },
    {
      "FromTo": [],
      "Interchange": [],
      "Index": 1,
      "Name": "Central Secretariat",
      "Neighbours": ["Janpath", "Khan Market"],
      "Line": "VIOLET"
    },
    {
      "FromTo": [],
      "Interchange": [],
      "Index": 1,
      "Name": "Khan Market",
      "Neighbours": ["Central Secretariat", "JLN"],
      "Line": "VIOLET"
    },
    {
      "FromTo": [],
      "Interchange": [],
      "Index": 1,
      "Name": "JLN",
      "Neighbours": ["Khan Market", "Jangpura"],
      "Line": "VIOLET"
    },
    {
      "FromTo": [],
      "Interchange": [],
      "Index": 1,
      "Name": "Jangpura",
      "Neighbours": ["JLN", "Lajpat Nagar"],
      "Line": "VIOLET"
    },
    {
      "FromTo": [],
      "Interchange": [],
      "Index": 1,
      "Name": "Lajpat Nagar",
      "Neighbours": ["Jangpura", "Moolchand", "South Extension", "Vinobapuri"],
      "Line": "VIOLET"
    },
    {
      "FromTo": [],
      "Interchange": [],
      "Index": 1,
      "Name": "Moolchand",
      "Neighbours": ["Lajpat Nagar", "Kailash Colony"],
      "Line": "VIOLET"
    },
    {
      "FromTo": [],
      "Interchange": [],
      "Index": 1,
      "Name": "Kailash Colony",
      "Neighbours": ["Moolchand", "Nehru Place"],
      "Line": "VIOLET"
    },
    {
      "FromTo": [],
      "Interchange": [],
      "Index": 1,
      "Name": "Nehru Place",
      "Neighbours": ["Kailash Colony", "Kalkaji Mandir"],
      "Line": "VIOLET"
    },
    {
      "FromTo": [],
      "Interchange": [],
      "Index": 1,
      "Name": "Kalkaji Mandir",
      "Neighbours": [
        "Nehru Place",
        "Govindpuri",
        "Nehru Enclave",
        "Okhla NSIC"
      ],
      "Line": "VIOLET"
    },
    {
      "FromTo": [],
      "Interchange": [],
      "Index": 1,
      "Name": "Govindpuri",
      "Neighbours": ["Kalkaji Mandir", "Okhla"],
      "Line": "VIOLET"
    },
    {
      "FromTo": [],
      "Interchange": [],
      "Index": 1,
      "Name": "Okhla",
      "Neighbours": ["Govindpuri", "Jasola-Apollo"],
      "Line": "VIOLET"
    },
    {
      "FromTo": [],
      "Interchange": [],
      "Index": 1,
      "Name": "Jasola-Apollo",
      "Neighbours": ["Okhla", "Sarita Vihar"],
      "Line": "VIOLET"
    },
    {
      "FromTo": [],
      "Interchange": [],
      "Index": 1,
      "Name": "Sarita Vihar",
      "Neighbours": ["Jasola-Apollo", "Mohan Estate"],
      "Line": "VIOLET"
    },
    {
      "FromTo": [],
      "Interchange": [],
      "Index": 1,
      "Name": "Mohan Estate",
      "Neighbours": ["Sarita Vihar", "Tuglakabad"],
      "Line": "VIOLET"
    },
    {
      "FromTo": [],
      "Interchange": [],
      "Index": 1,
      "Name": "Tuglakabad",
      "Neighbours": ["Mohan Estate", "Badarpur"],
      "Line": "VIOLET"
    },
    {
      "FromTo": [],
      "Interchange": [],
      "Index": 1,
      "Name": "Badarpur",
      "Neighbours": ["Tuglakabad", "Sarai"],
      "Line": "VIOLET"
    },
    {
      "FromTo": [],
      "Interchange": [],
      "Index": 1,
      "Name": "Sarai",
      "Neighbours": ["Badarpur", "NHPC Chownk"],
      "Line": "VIOLET"
    },
    {
      "FromTo": [],
      "Interchange": [],
      "Index": 1,
      "Name": "NHPC Chownk",
      "Neighbours": ["Sarai", "Mewla Maharajpur"],
      "Line": "VIOLET"
    },
    {
      "FromTo": [],
      "Interchange": [],
      "Index": 1,
      "Name": "Mewla Maharajpur",
      "Neighbours": ["NHPC Chownk", "Sector 28"],
      "Line": "VIOLET"
    },
    {
      "FromTo": [],
      "Interchange": [],
      "Index": 1,
      "Name": "Sector 28",
      "Neighbours": ["Mewla Maharajpur", "Badkal Mor"],
      "Line": "VIOLET"
    },
    {
      "FromTo": [],
      "Interchange": [],
      "Index": 1,
      "Name": "Badkal Mor",
      "Neighbours": ["Sector 28", "Faridabad Old"],
      "Line": "VIOLET"
    },
    {
      "FromTo": [],
      "Interchange": [],
      "Index": 1,
      "Name": "Faridabad Old",
      "Neighbours": ["Badkal Mor", "Neelam Chownk Ajronda"],
      "Line": "VIOLET"
    },
    {
      "FromTo": [],
      "Interchange": [],
      "Index": 1,
      "Name": "Neelam Chownk Ajronda",
      "Neighbours": ["Faridabad Old", "Bata Chownk"],
      "Line": "VIOLET"
    },
    {
      "FromTo": [],
      "Interchange": [],
      "Index": 1,
      "Name": "Bata Chownk",
      "Neighbours": ["Neelam Chownk Ajronda", "Escorts Mujesar"],
      "Line": "VIOLET"
    },
    {
      "FromTo": [],
      "Interchange": [],
      "Index": 1,
      "Name": "Escorts Mujesar",
      "Neighbours": ["Bata Chownk", "Sant Surdas"],
      "Line": "VIOLET"
    },
    {
      "FromTo": [],
      "Interchange": [],
      "Index": 1,
      "Name": "Sant Surdas",
      "Neighbours": ["Escorts Mujesar", "Raja Nahar singh marg"],
      "Line": "VIOLET"
    },
    {
      "FromTo": [],
      "Interchange": [],
      "Index": 1,
      "Name": "Raja Nahar singh marg",
      "Neighbours": ["Sant Surdas"],
      "Line": "VIOLET"
    },

    {
      "FromTo": [],
      "Interchange": [],
      "Index": 1,
      "Name": "Dabri Mor",
      "Neighbours": ["Janak Puri West", "Dashrathpuri"],
      "Line": "MAGENTA"
    },
    {
      "FromTo": [],
      "Interchange": [],
      "Index": 1,
      "Name": "Dashrathpuri",
      "Neighbours": ["Dabri Mor", "Palam"],
      "Line": "MAGENTA"
    },
    {
      "FromTo": [],
      "Interchange": [],
      "Index": 1,
      "Name": "Palam",
      "Neighbours": ["Dashrathpuri", "Sadar Bazar Cantonment"],
      "Line": "MAGENTA"
    },
    {
      "FromTo": [],
      "Interchange": [],
      "Index": 1,
      "Name": "Sadar Bazar Cantonment",
      "Neighbours": ["Palam", "IGI Airport Terminal 1"],
      "Line": "MAGENTA"
    },
    {
      "FromTo": [],
      "Interchange": [],
      "Index": 1,
      "Name": "IGI Airport Terminal 1",
      "Neighbours": ["Sadar Bazar Cantonment", "Shankar Vihar"],
      "Line": "MAGENTA"
    },
    {
      "FromTo": [],
      "Interchange": [],
      "Index": 1,
      "Name": "Shankar Vihar",
      "Neighbours": ["IGI Airport Terminal 1", "Vasant Vihar"],
      "Line": "MAGENTA"
    },
    {
      "FromTo": [],
      "Interchange": [],
      "Index": 1,
      "Name": "Vasant Vihar",
      "Neighbours": ["Shankar Vihar", "Munirka"],
      "Line": "MAGENTA"
    },
    {
      "FromTo": [],
      "Interchange": [],
      "Index": 1,
      "Name": "Munirka",
      "Neighbours": ["Vasant Vihar", "RK Puram"],
      "Line": "MAGENTA"
    },
    {
      "FromTo": [],
      "Interchange": [],
      "Index": 1,
      "Name": "RK Puram",
      "Neighbours": ["Munirka", "IIT Delhi"],
      "Line": "MAGENTA"
    },
    {
      "FromTo": [],
      "Interchange": [],
      "Index": 1,
      "Name": "IIT Delhi",
      "Neighbours": ["RK Puram", "Hauz Khas"],
      "Line": "MAGENTA"
    },
    {
      "FromTo": [],
      "Interchange": [],
      "Index": 1,
      "Name": "Hauz Khas",
      "Neighbours": [
        "IIT Delhi",
        "Panchsheel Park",
        "Green Park",
        "MalviaNagar"
      ],
      "Line": "MAGENTA"
    },
    {
      "FromTo": [],
      "Interchange": [],
      "Index": 1,
      "Name": "Panchsheel Park",
      "Neighbours": ["Hauz Khas", "Chirag Delhi"],
      "Line": "MAGENTA"
    },
    {
      "FromTo": [],
      "Interchange": [],
      "Index": 1,
      "Name": "Chirag Delhi",
      "Neighbours": ["Panchsheel Park", "Greater Kailash"],
      "Line": "MAGENTA"
    },
    {
      "FromTo": [],
      "Interchange": [],
      "Index": 1,
      "Name": "Greater Kailash",
      "Neighbours": ["Chirag Delhi", "Nehru Enclave"],
      "Line": "MAGENTA"
    },
    {
      "FromTo": [],
      "Interchange": [],
      "Index": 1,
      "Name": "Nehru Enclave",
      "Neighbours": ["Greater Kailash", "Kalkaji Mandir"],
      "Line": "MAGENTA"
    },

    {
      "FromTo": [],
      "Interchange": [],
      "Index": 1,
      "Name": "Okhla NSIC",
      "Neighbours": ["Kalkaji Mandir", "Sukhdev Vihar"],
      "Line": "MAGENTA"
    },
    {
      "FromTo": [],
      "Interchange": [],
      "Index": 1,
      "Name": "Sukhdev Vihar",
      "Neighbours": ["Okhla NSIC", "Jamia Millia Islamia"],
      "Line": "MAGENTA"
    },
    {
      "FromTo": [],
      "Interchange": [],
      "Index": 1,
      "Name": "Jamia Millia Islamia",
      "Neighbours": ["Sukhdev Vihar", "Okhla Vihar"],
      "Line": "MAGENTA"
    },
    {
      "FromTo": [],
      "Interchange": [],
      "Index": 1,
      "Name": "Okhla Vihar",
      "Neighbours": ["Jamia Millia Islamia", "Jasola Vihar Saheed Bagh"],
      "Line": "MAGENTA"
    },
    {
      "FromTo": [],
      "Interchange": [],
      "Index": 1,
      "Name": "Jasola Vihar Saheed Bagh",
      "Neighbours": ["Okhla Vihar", "Kalindi Kunj"],
      "Line": "MAGENTA"
    },
    {
      "FromTo": [],
      "Interchange": [],
      "Index": 1,
      "Name": "Kalindi Kunj",
      "Neighbours": ["Jasola Vihar Saheed Bagh", "Okhla Bird Sanctuary"],
      "Line": "MAGENTA",
      
    },
    {
      "FromTo": [],
      "Interchange": [],
      "Index": 1,
      "Name": "Okhla Bird Sanctuary",
      "Neighbours": ["Kalindi Kunj", "Botanical Garden"],
      "Line": "MAGENTA",
      
    },
    {
      "Name": "Samaypur Badli",
      "Neighbours": ["Rohini Sector 18"],
      "Line": "YELLOW",
      
    },
    {
      "Name": "Rohini Sector 18",
      "Neighbours": ["Samaypur Badli", "Haiderpur Badli Mor"],
      "Line": "YELLOW",
      
    },
    {
      "Name": "Haiderpur Badli Mor",
      "Neighbours": ["Rohini Sector 18", "Jahangirpuri"],
      "Line": "YELLOW",
      
    },
    {
      "Name": "Jahangirpuri",
      "Neighbours": ["Haiderpur Badli Mor", "Adarsh Nagar"],
      "Line": "YELLOW",
      "longitude": 77.16267, 
      "latitude": 28.72592
    },
    {
      "Name": "Adarsh Nagar",
      "Neighbours": ["Jahangirpuri", "Azadpur"],
      "Line": "YELLOW",
      "longitude": 77.17046, 
      "latitude": 28.71642
    },

    {
      "Name": "Model Town",
      "Neighbours": ["Azadpur", "GTB Nagar"],
      "Line": "YELLOW"
    },
    {
      "Name": "GTB Nagar",
      "Neighbours": ["Model Town", "Viswavidyalaya"],
      "Line": "YELLOW",
      "longitude": 77.20722, 
      "latitude": 28.69785
    },
    {
      "Name": "Viswavidyalaya",
      "Neighbours": ["GTB Nagar", "Vidhan Sabha"],
      "Line": "YELLOW",
      "longitude": 77.21483, 
      "latitude": 28.69480
    },
    {
      "Name": "Vidhan Sabha",
      "Neighbours": ["Viswavidyalaya", "Civil Lines"],
      "Line": "YELLOW",
      "longitude": 77.22140, 
      "latitude": 28.68802
    },
    {
      "Name": "Civil Lines",
      "Neighbours": ["Vidhan Sabha", "Kashmere Gate"],
      "Line": "YELLOW",
      "longitude": 77.22410, 
      "latitude": 28.67726
    },

    {
      "Name": "Chandhni Chowk",
      "Neighbours": ["Kashmere Gate", "Chawri Bazar"],
      "Line": "YELLOW",
      "longitude": 77.23014, 
      "latitude": 28.65785
    },
    {
      "Name": "Chawri Bazar",
      "Neighbours": ["Chandhni Chowk", "New Delhi"],
      "Line": "YELLOW",
      "longitude": 77.22637, 
      "latitude": 28.64931
    },
    {
      "Name": "New Delhi",
      "Neighbours": ["Chawri Bazar", "Rajiv Chowk"],
      "Line": "YELLOW",
      "longitude": 77.22144, 
      "latitude": 28.64307
    },

    {
      "Name": "Patel Chowk",
      "Neighbours": ["Rajiv Chowk", "Central Secretariat"],
      "Line": "YELLOW",
      "longitude": 77.21389, 
      "latitude": 28.62295
    },
    {
      "Name": "Udyog Bhawan",
      "Neighbours": ["Central Secretariat", "Lok Kalyan Marg"],
      "Line": "YELLOW",
      "longitude": 77.21198, 
      "latitude": 28.61166
    },
    {
      "Name": "Lok Kalyan Marg",
      "Neighbours": ["Udyog Bhawan", "Jorbagh"],
      "Line": "YELLOW",
      
    },
    {
      "Name": "Jorbagh",
      "Neighbours": ["Lok Kalyan Marg", "INA"],
      "Line": "YELLOW",
      "longitude": 77.21209, 
      "latitude": 28.58708
    },

    {
      "Name": "AIIMS",
      "Neighbours": ["INA", "Green Park"],
      "Line": "YELLOW",
      "longitude": 77.20771, 
      "latitude": 28.56892
    },
    {
      "Name": "Green Park",
      "Neighbours": ["AIIMS", "Hauz Khas"],
      "Line": "YELLOW",
      "longitude": 77.20682, 
      "latitude": 28.55979
    },

    {
      "Name": "MalviaNagar",
      "Neighbours": ["Hauz Khas", "Saket"],
      "Line": "YELLOW",
      "longitude": 77.20565, 
      "latitude": 28.52798
    },
    {
      "Name": "Saket",
      "Neighbours": ["MalviaNagar", "Qutab Minar"],
      "Line": "YELLOW",
      "longitude": 77.20138, 
      "latitude": 28.52060
    },
    {
      "Name": "Qutab Minar",
      "Neighbours": ["Saket", "Chhattarpur"],
      "Line": "YELLOW"
    },
    {
      "Name": "Chhattarpur",
      "Neighbours": ["Qutab Minar", "Sultanpur"],
      "Line": "YELLOW",
      "longitude": 77.17484, 
      "latitude": 28.50671
    },
    {
      "Name": "Sultanpur",
      "Neighbours": ["Chhattarpur", "Ghotorni"],
      "Line": "YELLOW",
      "longitude": 77.16153, 
      "latitude": 28.49927
    },
    {
      "Name": "Ghotorni",
      "Neighbours": ["Sultanpur", "Arjan Garh"],
      "Line": "YELLOW",
      "longitude": 77.14922, 
      "latitude": 28.49383 
    },
    {
      "Name": "Arjan Garh",
      "Neighbours": ["Ghotorni", "Guru Dronacharya"],
      "Line": "YELLOW",
      "longitude": 77.12583, 
      "latitude": 28.48076
    },
    {
      "Name": "Guru Dronacharya",
      "Neighbours": ["Arjan Garh", "Sikandarpur"],
      "Line": "YELLOW",
      "longitude": 77.10232, 
      "latitude": 28.48203
    },
    {
      "Name": "Sikandarpur",
      "Neighbours": ["Guru Dronacharya", "MG Road"],
      "Line": "YELLOW",
      "longitude": 77.09235, 
      "latitude": 28.48182
    },
    {
      "Name": "MG Road",
      "Neighbours": ["Sikandarpur", "IFFCO Chowk"],
      "Line": "YELLOW",
      "longitude": 77.08006, 
      "latitude": 28.47957
    },
    {
      "Name": "IFFCO Chowk",
      "Neighbours": ["MG Road", "Huda City Centre"],
      "Line": "YELLOW",
      "longitude": 77.07175, 
      "latitude": 28.47209
    },
    {
      "Name": "Huda City Centre",
      "Neighbours": ["IFFCO Chowk"],
      "Line": "YELLOW",
      "longitude": 77.07268, 
      "latitude": 28.45927
    }
  ]
}
